{
  "shipments": [
    {
      "shipmentId": "SHIP-0001",
      "status": "In Transit",
      "origin": {
        "name": "New York, NY",
        "address": "123 Main St"
      },
      "destination": {
        "name": "Los Angeles, CA",
        "address": "456 Oak Ave"
      },
      "carrier": "Fast Shipping",
      "weight": 10,
      "value": 100,
      "currentLocation": {
        "city": "Chicago",
        "state": "IL",
        "latitude": 41.8781,
        "longitude": -87.6298
      },
      "lastUpdated": "2024-10-27T10:00:00.000Z"
    },
    {
      "shipmentId": "SHIP-0002",
      "status": "Delivered",
      "origin": {
        "name": "Houston, TX",
        "address": "789 Pine Ln"
      },
      "destination": {
        "name": "Miami, FL",
        "address": "101 Ocean Dr"
      },
      "carrier": "Reliable Delivery",
      "weight": 5,
      "value": 50,
      "currentLocation": {
        "city": "Miami",
        "state": "FL",
        "latitude": 25.7617,
        "longitude": -80.1918
      },
      "lastUpdated": "2024-10-26T15:00:00.000Z"
    }
  ]
}